{"meta": {"code": 200, "requestId": "5da230f56adbf5002cbee4b8"}, "response": {"suggestedFilters": {"header": "Tap to show:", "filters": [{"name": "Open now", "key": "openNow"}]}, "headerLocation": "West Kensington", "headerFullLocation": "West Kensington, London", "headerLocationGranularity": "neighborhood", "totalResults": 35, "suggestedBounds": {"ne": {"lat": 51.4893000045, "lng": -0.1970871493267766}, "sw": {"lat": 51.4802999955, "lng": -0.21151285067322342}}, "groups": [{"type": "Recommended Places", "name": "recommended", "items": [{"reasons": {"count": 0, "items": [{"summary": "This spot is popular", "type": "general", "reasonName": "globalInteractionReason"}]}, "venue": {"id": "4caccc5644a8224b5da33640", "name": "Lily Tandoori", "location": {"address": "86c lillie road", "crossStreet": "North end road", "lat": 51.48560769265131, "lng": -0.2022381042670575, "labeledLatLngs": [{"label": "display", "lat": 51.48560769265131, "lng": -0.2022381042670575}], "distance": 168, "cc": "GB", "city": "Greater London", "state": "Greater London", "country": "United Kingdom", "formattedAddress": ["86c lillie road (North end road)", "Greater London", "United Kingdom"]}, "categories": [{"id": "4bf58dd8d48988d10f941735", "name": "Indian Restaurant", "pluralName": "Indian Restaurants", "shortName": "Indian", "icon": {"prefix": "https://ss3.4sqi.net/img/categories_v2/food/indian_", "suffix": ".png"}, "primary": true}], "photos": {"count": 0, "groups": []}}, "referralId": "e-0-4caccc5644a8224b5da33640-0"}, {"reasons": {"count": 0, "items": [{"summary": "This spot is popular", "type": "general", "reasonName": "globalInteractionReason"}]}, "venue": {"id": "4bd2ccb39854d13aa352fc4d", "name": "222 Veggie Vegan", "location": {"address": "222 North End Rd", "lat": 51.486076146930365, "lng": -0.20280159091036765, "labeledLatLngs": [{"label": "display", "lat": 51.486076146930365, "lng": -0.20280159091036765}], "distance": 175, "postalCode": "W14 9NU", "cc": "GB", "city": "Hammersmith", "state": "Greater London", "country": "United Kingdom", "formattedAddress": ["222 North End Rd", "Hammersmith", "Greater London", "W14 9NU", "United Kingdom"]}, "categories": [{"id": "4bf58dd8d48988d1d3941735", "name": "Vegetarian / Vegan Restaurant", "pluralName": "Vegetarian / Vegan Restaurants", "shortName": "Vegetarian / Vegan", "icon": {"prefix": "https://ss3.4sqi.net/img/categories_v2/food/vegetarian_", "suffix": ".png"}, "primary": true}], "photos": {"count": 0, "groups": []}}, "referralId": "e-0-4bd2ccb39854d13aa352fc4d-1"}, {"reasons": {"count": 0, "items": [{"summary": "This spot is popular", "type": "general", "reasonName": "globalInteractionReason"}]}, "venue": {"id": "5a64b53eacc5f51ad75fae38", "name": "Bistro Mirey", "location": {"address": "98 Lillie Road", "lat": 51.485342, "lng": -0.202957, "labeledLatLngs": [{"label": "display", "lat": 51.485342, "lng": -0.202957}], "distance": 110, "postalCode": "SW6 7SR", "cc": "GB", "city": "London", "state": "Greater London", "country": "United Kingdom", "formattedAddress": ["98 Lillie Road", "London", "Greater London", "SW6 7SR", "United Kingdom"]}, "categories": [{"id": "52e81612bcbc57f1066b79f1", "name": "Bistro", "pluralName": "Bistros", "shortName": "Bistro", "icon": {"prefix": "https://ss3.4sqi.net/img/categories_v2/food/default_", "suffix": ".png"}, "primary": true}], "photos": {"count": 0, "groups": []}}, "referralId": "e-0-5a64b53eacc5f51ad75fae38-2"}, {"reasons": {"count": 0, "items": [{"summary": "This spot is popular", "type": "general", "reasonName": "globalInteractionReason"}]}, "venue": {"id": "57fd370a498e98051e9964c3", "name": "PickyWops", "location": {"address": "Unit 7 - 347 North End Road", "lat": 51.48465349174076, "lng": -0.20171577575638366, "labeledLatLngs": [{"label": "display", "lat": 51.48465349174076, "lng": -0.20171577575638366}], "distance": 179, "postalCode": "SW6 1NN", "cc": "GB", "city": "London", "state": "Greater London", "country": "United Kingdom", "formattedAddress": ["Unit 7 - 347 North End Road", "London", "Greater London", "SW6 1NN", "United Kingdom"]}, "categories": [{"id": "4bf58dd8d48988d1ca941735", "name": "Pizza Place", "pluralName": "Pizza Places", "shortName": "Pizza", "icon": {"prefix": "https://ss3.4sqi.net/img/categories_v2/food/pizza_", "suffix": ".png"}, "primary": true}], "photos": {"count": 0, "groups": []}}, "referralId": "e-0-57fd370a498e98051e9964c3-3"}, {"reasons": {"count": 0, "items": [{"summary": "This spot is popular", "type": "general", "reasonName": "globalInteractionReason"}]}, "venue": {"id": "4e072de5483b98d4170ebca7", "name": "The Rylston", "location": {"address": "197 lillie road", "lat": 51.483821608911455, "lng": -0.20695206749610112, "labeledLatLngs": [{"label": "display", "lat": 51.483821608911455, "lng": -0.20695206749610112}], "distance": 213, "postalCode": "Sw6 7lw", "cc": "GB", "city": "London", "state": "Greater London", "country": "United Kingdom", "formattedAddress": ["197 lillie road", "London", "Greater London", "Sw6 7lw", "United Kingdom"]}, "categories": [{"id": "4bf58dd8d48988d116941735", "name": "Bar", "pluralName": "Bars", "shortName": "Bar", "icon": {"prefix": "https://ss3.4sqi.net/img/categories_v2/nightlife/pub_", "suffix": ".png"}, "primary": true}], "photos": {"count": 0, "groups": []}, "venuePage": {"id": "40220495"}}, "referralId": "e-0-4e072de5483b98d4170ebca7-4"}, {"reasons": {"count": 0, "items": [{"summary": "This spot is popular", "type": "general", "reasonName": "globalInteractionReason"}]}, "venue": {"id": "585ff80aa598b3131924ff81", "name": "Jaffa Bakery", "location": {"address": "Nort End Road", "lat": 51.48357, "lng": -0.201032, "labeledLatLngs": [{"label": "display", "lat": 51.48357, "lng": -0.201032}], "distance": 264, "cc": "GB", "city": "London", "state": "Greater London", "country": "United Kingdom", "formattedAddress": ["Nort End Road", "London", "Greater London", "United Kingdom"]}, "categories": [{"id": "4bf58dd8d48988d16a941735", "name": "Bakery", "pluralName": "Bakeries", "shortName": "Bakery", "icon": {"prefix": "https://ss3.4sqi.net/img/categories_v2/food/bakery_", "suffix": ".png"}, "primary": true}], "photos": {"count": 0, "groups": []}}, "referralId": "e-0-585ff80aa598b3131924ff81-5"}, {"reasons": {"count": 0, "items": [{"summary": "This spot is popular", "type": "general", "reasonName": "globalInteractionReason"}]}, "venue": {"id": "57951e4d498e85cfba840b0c", "name": "The Cr\u00eape Factory", "location": {"address": "297 North End Road", "lat": 51.48594, "lng": -0.20265397, "labeledLatLngs": [{"label": "display", "lat": 51.48594, "lng": -0.20265397}], "distance": 170, "postalCode": "W14 9NS", "cc": "GB", "city": "London", "state": "Greater London", "country": "United Kingdom", "formattedAddress": ["297 North End Road", "London", "Greater London", "W14 9NS", "United Kingdom"]}, "categories": [{"id": "52e81612bcbc57f1066b79f2", "name": "Creperie", "pluralName": "Creperies", "shortName": "Creperie", "icon": {"prefix": "https://ss3.4sqi.net/img/categories_v2/food/creperie_", "suffix": ".png"}, "primary": true}], "photos": {"count": 0, "groups": []}}, "referralId": "e-0-57951e4d498e85cfba840b0c-6"}, {"reasons": {"count": 0, "items": [{"summary": "This spot is popular", "type": "general", "reasonName": "globalInteractionReason"}]}, "venue": {"id": "4e6c9c07d1649db799aee3bf", "name": "Porcini", "location": {"address": "244 North End Road", "lat": 51.4852255580058, "lng": -0.20237043959877382, "labeledLatLngs": [{"label": "display", "lat": 51.4852255580058, "lng": -0.20237043959877382}], "distance": 141, "postalCode": "SW6 1NL", "cc": "GB", "city": "London", "state": "Greater London", "country": "United Kingdom", "formattedAddress": ["244 North End Road", "London", "Greater London", "SW6 1NL", "United Kingdom"]}, "categories": [{"id": "4bf58dd8d48988d110941735", "name": "Italian Restaurant", "pluralName": "Italian Restaurants", "shortName": "Italian", "icon": {"prefix": "https://ss3.4sqi.net/img/categories_v2/food/italian_", "suffix": ".png"}, "primary": true}], "photos": {"count": 0, "groups": []}, "venuePage": {"id": "89604756"}}, "referralId": "e-0-4e6c9c07d1649db799aee3bf-7"}, {"reasons": {"count": 0, "items": [{"summary": "This spot is popular", "type": "general", "reasonName": "globalInteractionReason"}]}, "venue": {"id": "53925164498efde5f304528f", "name": "Holiday Inn Express London - Earl's Court", "location": {"address": "295 North End Road", "lat": 51.4863279, "lng": -0.2026689, "labeledLatLngs": [{"label": "display", "lat": 51.4863279, "lng": -0.2026689}], "distance": 204, "postalCode": "W14 9NS", "cc": "GB", "city": "London", "country": "United Kingdom", "formattedAddress": ["295 North End Road", "London", "W14 9NS", "United Kingdom"]}, "categories": [{"id": "4bf58dd8d48988d1fa931735", "name": "Hotel", "pluralName": "Hotels", "shortName": "Hotel", "icon": {"prefix": "https://ss3.4sqi.net/img/categories_v2/travel/hotel_", "suffix": ".png"}, "primary": true}], "photos": {"count": 0, "groups": []}}, "referralId": "e-0-53925164498efde5f304528f-8"}, {"reasons": {"count": 0, "items": [{"summary": "This spot is popular", "type": "general", "reasonName": "globalInteractionReason"}]}, "venue": {"id": "4ea43c259911214fd18f84c8", "name": "Baileys Fish & Chips", "location": {"address": "115 Dawes Rd.", "lat": 51.480452391665665, "lng": -0.2039872762981498, "labeledLatLngs": [{"label": "display", "lat": 51.480452391665665, "lng": -0.2039872762981498}], "distance": 484, "postalCode": "SW6 7DU", "cc": "GB", "city": "Fulham", "state": "Greater London", "country": "United Kingdom", "formattedAddress": ["115 Dawes Rd.", "Fulham", "Greater London", "SW6 7DU", "United Kingdom"]}, "categories": [{"id": "4edd64a0c7ddd24ca188df1a", "name": "Fish & Chips Shop", "pluralName": "Fish & Chips Shops", "shortName": "Fish & Chips", "icon": {"prefix": "https://ss3.4sqi.net/img/categories_v2/food/fishandchips_", "suffix": ".png"}, "primary": true}], "photos": {"count": 0, "groups": []}}, "referralId": "e-0-4ea43c259911214fd18f84c8-9"}, {"reasons": {"count": 0, "items": [{"summary": "This spot is popular", "type": "general", "reasonName": "globalInteractionReason"}]}, "venue": {"id": "4e071694d22d658532a3c052", "name": "Queens Club Private Gardens", "location": {"address": "Queen's Club Gardens", "lat": 51.48586146854113, "lng": -0.20865070368739289, "labeledLatLngs": [{"label": "display", "lat": 51.48586146854113, "lng": -0.20865070368739289}], "distance": 323, "postalCode": "W1 4 9", "cc": "GB", "city": "Barons Court", "state": "Greater London", "country": "United Kingdom", "formattedAddress": ["Queen's Club Gardens", "Barons Court", "Greater London", "W1 4 9", "United Kingdom"]}, "categories": [{"id": "4bf58dd8d48988d15a941735", "name": "Garden", "pluralName": "Gardens", "shortName": "Garden", "icon": {"prefix": "https://ss3.4sqi.net/img/categories_v2/parks_outdoors/garden_", "suffix": ".png"}, "primary": true}], "photos": {"count": 0, "groups": []}}, "referralId": "e-0-4e071694d22d658532a3c052-10"}, {"reasons": {"count": 0, "items": [{"summary": "This spot is popular", "type": "general", "reasonName": "globalInteractionReason"}]}, "venue": {"id": "4ac518eef964a52027ad20e3", "name": "North End Road Market", "location": {"address": "North End Rd", "lat": 51.484122280260685, "lng": -0.20127770388845995, "labeledLatLngs": [{"label": "display", "lat": 51.484122280260685, "lng": -0.20127770388845995}], "distance": 222, "postalCode": "SW6 1NL", "cc": "GB", "city": "Fulham", "state": "Greater London", "country": "United Kingdom", "formattedAddress": ["North End Rd", "Fulham", "Greater London", "SW6 1NL", "United Kingdom"]}, "categories": [{"id": "4bf58dd8d48988d1fa941735", "name": "Farmers Market", "pluralName": "Farmers Markets", "shortName": "Farmer's Market", "icon": {"prefix": "https://ss3.4sqi.net/img/categories_v2/shops/food_farmersmarket_", "suffix": ".png"}, "primary": true}], "photos": {"count": 0, "groups": []}}, "referralId": "e-0-4ac518eef964a52027ad20e3-11"}, {"reasons": {"count": 0, "items": [{"summary": "This spot is popular", "type": "general", "reasonName": "globalInteractionReason"}]}, "venue": {"id": "5c06d273e47b460039f07ec8", "name": "The Gym", "location": {"address": "254 North End Road", "lat": 51.48430105693394, "lng": -0.20217132544030017, "labeledLatLngs": [{"label": "display", "lat": 51.48430105693394, "lng": -0.20217132544030017}], "distance": 157, "postalCode": "SW6 1NJ", "cc": "GB", "city": "London", "state": "Greater London", "country": "United Kingdom", "formattedAddress": ["254 North End Road", "London", "Greater London", "SW6 1NJ", "United Kingdom"]}, "categories": [{"id": "4bf58dd8d48988d176941735", "name": "Gym", "pluralName": "Gyms", "shortName": "Gym", "icon": {"prefix": "https://ss3.4sqi.net/img/categories_v2/building/gym_", "suffix": ".png"}, "primary": true}], "photos": {"count": 0, "groups": []}}, "referralId": "e-0-5c06d273e47b460039f07ec8-12"}, {"reasons": {"count": 0, "items": [{"summary": "This spot is popular", "type": "general", "reasonName": "globalInteractionReason"}]}, "venue": {"id": "4c3f64e7ce54e21e98fd071a", "name": "The Goose", "location": {"address": "248 North End Road", "lat": 51.484985484717114, "lng": -0.20239925461373787, "labeledLatLngs": [{"label": "display", "lat": 51.484985484717114, "lng": -0.20239925461373787}], "distance": 133, "postalCode": "SW6 1NL", "cc": "GB", "city": "Fulham", "state": "Greater London", "country": "United Kingdom", "formattedAddress": ["248 North End Road", "Fulham", "Greater London", "SW6 1NL", "United Kingdom"]}, "categories": [{"id": "4bf58dd8d48988d11b941735", "name": "Pub", "pluralName": "Pubs", "shortName": "Pub", "icon": {"prefix": "https://ss3.4sqi.net/img/categories_v2/nightlife/pub_", "suffix": ".png"}, "primary": true}], "photos": {"count": 0, "groups": []}}, "referralId": "e-0-4c3f64e7ce54e21e98fd071a-13"}, {"reasons": {"count": 0, "items": [{"summary": "This spot is popular", "type": "general", "reasonName": "globalInteractionReason"}]}, "venue": {"id": "4c7aa451a86837048e42144d", "name": "Normand Park", "location": {"address": "Lillie Rd", "crossStreet": "btwn Moylan & Mulgrave", "lat": 51.48420243797363, "lng": -0.20756006240844727, "labeledLatLngs": [{"label": "display", "lat": 51.48420243797363, "lng": -0.20756006240844727}], "distance": 235, "postalCode": "W14 9PA", "cc": "GB", "city": "London", "state": "Greater London", "country": "United Kingdom", "formattedAddress": ["Lillie Rd (btwn Moylan & Mulgrave)", "London", "Greater London", "W14 9PA", "United Kingdom"]}, "categories": [{"id": "4bf58dd8d48988d163941735", "name": "Park", "pluralName": "Parks", "shortName": "Park", "icon": {"prefix": "https://ss3.4sqi.net/img/categories_v2/parks_outdoors/park_", "suffix": ".png"}, "primary": true}], "photos": {"count": 0, "groups": []}}, "referralId": "e-0-4c7aa451a86837048e42144d-14"}, {"reasons": {"count": 0, "items": [{"summary": "This spot is popular", "type": "general", "reasonName": "globalInteractionReason"}]}, "venue": {"id": "55549654498e9b30d27d73b0", "name": "Little Waitrose & Partners", "location": {"address": "116-128 North End Rd", "lat": 51.48867193462828, "lng": -0.2052207181995982, "labeledLatLngs": [{"label": "display", "lat": 51.48867193462828, "lng": -0.2052207181995982}], "distance": 435, "postalCode": "W14 9PP", "cc": "GB", "city": "West Kensington", "state": "Greater London", "country": "United Kingdom", "formattedAddress": ["116-128 North End Rd", "West Kensington", "Greater London", "W14 9PP", "United Kingdom"]}, "categories": [{"id": "4bf58dd8d48988d118951735", "name": "Grocery Store", "pluralName": "Grocery Stores", "shortName": "Grocery Store", "icon": {"prefix": "https://ss3.4sqi.net/img/categories_v2/shops/food_grocery_", "suffix": ".png"}, "primary": true}], "photos": {"count": 0, "groups": []}, "venuePage": {"id": "565003039"}}, "referralId": "e-0-55549654498e9b30d27d73b0-15"}, {"reasons": {"count": 0, "items": [{"summary": "This spot is popular", "type": "general", "reasonName": "globalInteractionReason"}]}, "venue": {"id": "4b896640f964a520843232e3", "name": "Virgin Active", "location": {"address": "Normand Park, Lillie Road", "lat": 51.48435481154867, "lng": -0.20838991534424167, "labeledLatLngs": [{"label": "display", "lat": 51.48435481154867, "lng": -0.20838991534424167}], "distance": 287, "postalCode": "SW6 7ST", "cc": "GB", "city": "London", "state": "Greater London", "country": "United Kingdom", "formattedAddress": ["Normand Park, Lillie Road", "London", "Greater London", "SW6 7ST", "United Kingdom"]}, "categories": [{"id": "4bf58dd8d48988d175941735", "name": "Gym / Fitness Center", "pluralName": "Gyms or Fitness Centers", "shortName": "Gym / Fitness", "icon": {"prefix": "https://ss3.4sqi.net/img/categories_v2/building/gym_", "suffix": ".png"}, "primary": true}], "photos": {"count": 0, "groups": []}}, "referralId": "e-0-4b896640f964a520843232e3-16"}, {"reasons": {"count": 0, "items": [{"summary": "This spot is popular", "type": "general", "reasonName": "globalInteractionReason"}]}, "venue": {"id": "52b5abce498e59c7e85a3311", "name": "Mamma Anna & Co.", "location": {"address": "3 Charleville Rd", "lat": 51.48905939155363, "lng": -0.20614653825759888, "labeledLatLngs": [{"label": "display", "lat": 51.48905939155363, "lng": -0.20614653825759888}], "distance": 491, "postalCode": "W14 9JL", "cc": "GB", "city": "London", "state": "Greater London", "country": "United Kingdom", "formattedAddress": ["3 Charleville Rd", "London", "Greater London", "W14 9JL", "United Kingdom"]}, "categories": [{"id": "4bf58dd8d48988d146941735", "name": "Deli / Bodega", "pluralName": "Delis / Bodegas", "shortName": "Deli / Bodega", "icon": {"prefix": "https://ss3.4sqi.net/img/categories_v2/food/deli_", "suffix": ".png"}, "primary": true}], "photos": {"count": 0, "groups": []}, "venuePage": {"id": "75985817"}}, "referralId": "e-0-52b5abce498e59c7e85a3311-17"}, {"reasons": {"count": 0, "items": [{"summary": "This spot is popular", "type": "general", "reasonName": "globalInteractionReason"}]}, "venue": {"id": "52041c45498ed1d84b1dbbc5", "name": "Skyline Tent", "location": {"address": "47 Lillie Rd", "lat": 51.48565222931521, "lng": -0.1994168758392334, "labeledLatLngs": [{"label": "display", "lat": 51.48565222931521, "lng": -0.1994168758392334}], "distance": 351, "cc": "GB", "city": "London", "state": "Greater London", "country": "United Kingdom", "formattedAddress": ["47 Lillie Rd", "London", "Greater London", "United Kingdom"]}, "categories": [{"id": "4bf58dd8d48988d119941735", "name": "Hookah Bar", "pluralName": "Hookah Bars", "shortName": "Hookah Bar", "icon": {"prefix": "https://ss3.4sqi.net/img/categories_v2/nightlife/hookahbar_", "suffix": ".png"}, "primary": true}], "photos": {"count": 0, "groups": []}}, "referralId": "e-0-52041c45498ed1d84b1dbbc5-18"}, {"reasons": {"count": 0, "items": [{"summary": "This spot is popular", "type": "general", "reasonName": "globalInteractionReason"}]}, "venue": {"id": "4b0ad159f964a520572823e3", "name": "Colton Arms", "location": {"address": "187 Greyhound Road", "lat": 51.48657836797342, "lng": -0.2108350396156311, "labeledLatLngs": [{"label": "display", "lat": 51.48657836797342, "lng": -0.2108350396156311}], "distance": 494, "postalCode": "W14 9SD", "cc": "GB", "city": "London", "state": "Greater London", "country": "United Kingdom", "formattedAddress": ["187 Greyhound Road", "London", "Greater London", "W14 9SD", "United Kingdom"]}, "categories": [{"id": "4bf58dd8d48988d11b941735", "name": "Pub", "pluralName": "Pubs", "shortName": "Pub", "icon": {"prefix": "https://ss3.4sqi.net/img/categories_v2/nightlife/pub_", "suffix": ".png"}, "primary": true}], "photos": {"count": 0, "groups": []}}, "referralId": "e-0-4b0ad159f964a520572823e3-19"}, {"reasons": {"count": 0, "items": [{"summary": "This spot is popular", "type": "general", "reasonName": "globalInteractionReason"}]}, "venue": {"id": "4ac518b4f964a52075a020e3", "name": "ibis Hotel", "location": {"address": "47 Lillie Road, Earl's Court", "lat": 51.48580635282587, "lng": -0.19955662076063163, "labeledLatLngs": [{"label": "display", "lat": 51.48580635282587, "lng": -0.19955662076063163}], "distance": 347, "postalCode": "SW6 1UD", "cc": "GB", "neighborhood": "Fulham Broadway", "city": "West Brompton", "state": "Greater London", "country": "United Kingdom", "formattedAddress": ["47 Lillie Road, Earl's Court", "West Brompton", "Greater London", "SW6 1UD", "United Kingdom"]}, "categories": [{"id": "4bf58dd8d48988d1fa931735", "name": "Hotel", "pluralName": "Hotels", "shortName": "Hotel", "icon": {"prefix": "https://ss3.4sqi.net/img/categories_v2/travel/hotel_", "suffix": ".png"}, "primary": true}], "photos": {"count": 0, "groups": []}}, "referralId": "e-0-4ac518b4f964a52075a020e3-20"}, {"reasons": {"count": 0, "items": [{"summary": "This spot is popular", "type": "general", "reasonName": "globalInteractionReason"}]}, "venue": {"id": "4cb77f8e9552b60cf15ac58b", "name": "The George And Dragon", "location": {"address": "Ibis Hotel", "lat": 51.48579895576687, "lng": -0.19950781379514076, "labeledLatLngs": [{"label": "display", "lat": 51.48579895576687, "lng": -0.19950781379514076}], "distance": 350, "postalCode": "SW6 1UD", "cc": "GB", "city": "London", "state": "Greater London", "country": "United Kingdom", "formattedAddress": ["Ibis Hotel", "London", "Greater London", "SW6 1UD", "United Kingdom"]}, "categories": [{"id": "4bf58dd8d48988d1d5941735", "name": "Hotel Bar", "pluralName": "Hotel Bars", "shortName": "Hotel Bar", "icon": {"prefix": "https://ss3.4sqi.net/img/categories_v2/travel/hotel_bar_", "suffix": ".png"}, "primary": true}], "photos": {"count": 0, "groups": []}}, "referralId": "e-0-4cb77f8e9552b60cf15ac58b-21"}, {"reasons": {"count": 0, "items": [{"summary": "This spot is popular", "type": "general", "reasonName": "globalInteractionReason"}]}, "venue": {"id": "4de38604c65b7a3e2133c56a", "name": "Boots", "location": {"address": "322-324 North End Rd", "lat": 51.48205736393288, "lng": -0.19977733357888133, "labeledLatLngs": [{"label": "display", "lat": 51.48205736393288, "lng": -0.19977733357888133}], "distance": 437, "postalCode": "SW6 1NF", "cc": "GB", "city": "Fulham", "state": "Greater London", "country": "United Kingdom", "formattedAddress": ["322-324 North End Rd", "Fulham", "Greater London", "SW6 1NF", "United Kingdom"]}, "categories": [{"id": "4bf58dd8d48988d10f951735", "name": "Pharmacy", "pluralName": "Pharmacies", "shortName": "Pharmacy", "icon": {"prefix": "https://ss3.4sqi.net/img/categories_v2/shops/pharmacy_", "suffix": ".png"}, "primary": true}], "photos": {"count": 0, "groups": []}}, "referralId": "e-0-4de38604c65b7a3e2133c56a-22"}, {"reasons": {"count": 0, "items": [{"summary": "This spot is popular", "type": "general", "reasonName": "globalInteractionReason"}]}, "venue": {"id": "4d876a58651041bdd7139b30", "name": "Subway", "location": {"address": "395 North End Rd", "lat": 51.48315909148685, "lng": -0.20066750100625413, "labeledLatLngs": [{"label": "display", "lat": 51.48315909148685, "lng": -0.20066750100625413}], "distance": 311, "postalCode": "SW6 1NR", "cc": "GB", "city": "Fulham", "state": "Greater London", "country": "United Kingdom", "formattedAddress": ["395 North End Rd", "Fulham", "Greater London", "SW6 1NR", "United Kingdom"]}, "categories": [{"id": "4bf58dd8d48988d1c5941735", "name": "Sandwich Place", "pluralName": "Sandwich Places", "shortName": "Sandwiches", "icon": {"prefix": "https://ss3.4sqi.net/img/categories_v2/food/deli_", "suffix": ".png"}, "primary": true}], "photos": {"count": 0, "groups": []}}, "referralId": "e-0-4d876a58651041bdd7139b30-23"}, {"reasons": {"count": 0, "items": [{"summary": "This spot is popular", "type": "general", "reasonName": "globalInteractionReason"}]}, "venue": {"id": "4baddb34f964a520ba6d3be3", "name": "Iceland", "location": {"address": "290-302 N End Rd", "lat": 51.483307108605935, "lng": -0.20089663880599234, "labeledLatLngs": [{"label": "display", "lat": 51.483307108605935, "lng": -0.20089663880599234}], "distance": 288, "postalCode": "SW6 1NQ", "cc": "GB", "city": "Fulham", "state": "Greater London", "country": "United Kingdom", "formattedAddress": ["290-302 N End Rd", "Fulham", "Greater London", "SW6 1NQ", "United Kingdom"]}, "categories": [{"id": "4bf58dd8d48988d118951735", "name": "Grocery Store", "pluralName": "Grocery Stores", "shortName": "Grocery Store", "icon": {"prefix": "https://ss3.4sqi.net/img/categories_v2/shops/food_grocery_", "suffix": ".png"}, "primary": true}], "photos": {"count": 0, "groups": []}}, "referralId": "e-0-4baddb34f964a520ba6d3be3-24"}, {"reasons": {"count": 0, "items": [{"summary": "This spot is popular", "type": "general", "reasonName": "globalInteractionReason"}]}, "venue": {"id": "4c0ff930f1b6a59311267b27", "name": "KFC", "location": {"address": "326 North End Rd", "lat": 51.482479691976955, "lng": -0.20016398631694252, "labeledLatLngs": [{"label": "display", "lat": 51.482479691976955, "lng": -0.20016398631694252}], "distance": 385, "postalCode": "SW6 1NF", "cc": "GB", "city": "Fulham", "state": "Greater London", "country": "United Kingdom", "formattedAddress": ["326 North End Rd", "Fulham", "Greater London", "SW6 1NF", "United Kingdom"]}, "categories": [{"id": "4bf58dd8d48988d16e941735", "name": "Fast Food Restaurant", "pluralName": "Fast Food Restaurants", "shortName": "Fast Food", "icon": {"prefix": "https://ss3.4sqi.net/img/categories_v2/food/fastfood_", "suffix": ".png"}, "primary": true}], "photos": {"count": 0, "groups": []}}, "referralId": "e-0-4c0ff930f1b6a59311267b27-25"}, {"reasons": {"count": 0, "items": [{"summary": "This spot is popular", "type": "general", "reasonName": "globalInteractionReason"}]}, "venue": {"id": "4bd681bf637ba593b55af870", "name": "Costa Coffee", "location": {"address": "431 North End Rd", "lat": 51.481995962201616, "lng": -0.1997523729245455, "labeledLatLngs": [{"label": "display", "lat": 51.481995962201616, "lng": -0.1997523729245455}], "distance": 443, "cc": "GB", "city": "London", "state": "Greater London", "country": "United Kingdom", "formattedAddress": ["431 North End Rd", "London", "Greater London", "United Kingdom"]}, "categories": [{"id": "4bf58dd8d48988d1e0931735", "name": "Coffee Shop", "pluralName": "Coffee Shops", "shortName": "Coffee Shop", "icon": {"prefix": "https://ss3.4sqi.net/img/categories_v2/food/coffeeshop_", "suffix": ".png"}, "primary": true}], "photos": {"count": 0, "groups": []}}, "referralId": "e-0-4bd681bf637ba593b55af870-26"}, {"reasons": {"count": 0, "items": [{"summary": "This spot is popular", "type": "general", "reasonName": "globalInteractionReason"}]}, "venue": {"id": "537bc5a7498e79a3c55bf5c5", "name": "Argos", "location": {"address": "340-342 North End Rd", "lat": 51.48166803132146, "lng": -0.19974077377188684, "labeledLatLngs": [{"label": "display", "lat": 51.48166803132146, "lng": -0.19974077377188684}], "distance": 470, "postalCode": "SW6 1NB", "cc": "GB", "city": "Fulham", "state": "Greater London", "country": "United Kingdom", "formattedAddress": ["340-342 North End Rd", "Fulham", "Greater London", "SW6 1NB", "United Kingdom"]}, "categories": [{"id": "52e816a6bcbc57f1066b7a54", "name": "Warehouse Store", "pluralName": "Warehouse Stores", "shortName": "Warehouse Store", "icon": {"prefix": "https://ss3.4sqi.net/img/categories_v2/shops/default_", "suffix": ".png"}, "primary": true}], "photos": {"count": 0, "groups": []}}, "referralId": "e-0-537bc5a7498e79a3c55bf5c5-27"}, {"reasons": {"count": 0, "items": [{"summary": "This spot is popular", "type": "general", "reasonName": "globalInteractionReason"}]}, "venue": {"id": "4ccf3f7501eaf04db0fbb15d", "name": "Tesco Express", "location": {"address": "21 Sherbrooke Rd", "lat": 51.48090841988989, "lng": -0.20677967929032093, "labeledLatLngs": [{"label": "display", "lat": 51.48090841988989, "lng": -0.20677967929032093}], "distance": 466, "postalCode": "SW6 7HX", "cc": "GB", "city": "London", "state": "Greater London", "country": "United Kingdom", "formattedAddress": ["21 Sherbrooke Rd", "London", "Greater London", "SW6 7HX", "United Kingdom"]}, "categories": [{"id": "4bf58dd8d48988d118951735", "name": "Grocery Store", "pluralName": "Grocery Stores", "shortName": "Grocery Store", "icon": {"prefix": "https://ss3.4sqi.net/img/categories_v2/shops/food_grocery_", "suffix": ".png"}, "primary": true}], "photos": {"count": 0, "groups": []}}, "referralId": "e-0-4ccf3f7501eaf04db0fbb15d-28"}, {"reasons": {"count": 0, "items": [{"summary": "This spot is popular", "type": "general", "reasonName": "globalInteractionReason"}]}, "venue": {"id": "5311b33c11d25a8a1de2fb3d", "name": "Poundland", "location": {"address": "314-318 North End Road", "lat": 51.482805836640125, "lng": -0.20065130257512465, "labeledLatLngs": [{"label": "display", "lat": 51.482805836640125, "lng": -0.20065130257512465}], "distance": 336, "postalCode": "SW6 1NG", "cc": "GB", "city": "Fulham", "state": "Greater London", "country": "United Kingdom", "formattedAddress": ["314-318 North End Road", "Fulham", "Greater London", "SW6 1NG", "United Kingdom"]}, "categories": [{"id": "52dea92d3cf9994f4e043dbb", "name": "Discount Store", "pluralName": "Discount Stores", "shortName": "Discount Store", "icon": {"prefix": "https://ss3.4sqi.net/img/categories_v2/shops/discountstore_", "suffix": ".png"}, "primary": true}], "photos": {"count": 0, "groups": []}}, "referralId": "e-0-5311b33c11d25a8a1de2fb3d-29"}, {"reasons": {"count": 0, "items": [{"summary": "This spot is popular", "type": "general", "reasonName": "globalInteractionReason"}]}, "venue": {"id": "4bf4a4c8cad2c928603e9c99", "name": "Easy Bus Stop BB", "location": {"address": "47 Lillie Rd", "crossStreet": "across from Hotel Ibis", "lat": 51.486238, "lng": -0.199168, "labeledLatLngs": [{"label": "display", "lat": 51.486238, "lng": -0.199168}], "distance": 390, "postalCode": "SW6 1UD", "cc": "GB", "city": "London", "state": "Greater London", "country": "United Kingdom", "formattedAddress": ["47 Lillie Rd (across from Hotel Ibis)", "London", "Greater London", "SW6 1UD", "United Kingdom"]}, "categories": [{"id": "52f2ab2ebcbc57f1066b8b4f", "name": "Bus Stop", "pluralName": "Bus Stops", "shortName": "Bus Stop", "icon": {"prefix": "https://ss3.4sqi.net/img/categories_v2/travel/busstation_", "suffix": ".png"}, "primary": true}], "photos": {"count": 0, "groups": []}}, "referralId": "e-0-4bf4a4c8cad2c928603e9c99-30"}, {"reasons": {"count": 0, "items": [{"summary": "This spot is popular", "type": "general", "reasonName": "globalInteractionReason"}]}, "venue": {"id": "4e0f14ad7d8bb178a8aef0a3", "name": "Savers", "location": {"address": "North End Rd.", "lat": 51.48223111202709, "lng": -0.20028274836279247, "labeledLatLngs": [{"label": "display", "lat": 51.48223111202709, "lng": -0.20028274836279247}], "distance": 399, "cc": "GB", "city": "Fulham", "state": "Greater London", "country": "United Kingdom", "formattedAddress": ["North End Rd.", "Fulham", "Greater London", "United Kingdom"]}, "categories": [{"id": "4bf58dd8d48988d10c951735", "name": "Cosmetics Shop", "pluralName": "Cosmetics Shops", "shortName": "Cosmetics", "icon": {"prefix": "https://ss3.4sqi.net/img/categories_v2/shops/beauty_cosmetic_", "suffix": ".png"}, "primary": true}], "photos": {"count": 0, "groups": []}}, "referralId": "e-0-4e0f14ad7d8bb178a8aef0a3-31"}, {"reasons": {"count": 0, "items": [{"summary": "This spot is popular", "type": "general", "reasonName": "globalInteractionReason"}]}, "venue": {"id": "4ec6851e61af9e142e8a74ff", "name": "Sports Direct", "location": {"address": "427-429 North End Rd.", "crossStreet": "at Eustace Rd.", "lat": 51.4820834270104, "lng": -0.19963254539412303, "labeledLatLngs": [{"label": "display", "lat": 51.4820834270104, "lng": -0.19963254539412303}], "distance": 442, "postalCode": "SW6 1NY", "cc": "GB", "city": "Fulham", "state": "Greater London", "country": "United Kingdom", "formattedAddress": ["427-429 North End Rd. (at Eustace Rd.)", "Fulham", "Greater London", "SW6 1NY", "United Kingdom"]}, "categories": [{"id": "4bf58dd8d48988d1f2941735", "name": "Sporting Goods Shop", "pluralName": "Sporting Goods Shops", "shortName": "Sporting Goods", "icon": {"prefix": "https://ss3.4sqi.net/img/categories_v2/shops/sports_outdoors_", "suffix": ".png"}, "primary": true}], "photos": {"count": 0, "groups": []}}, "referralId": "e-0-4ec6851e61af9e142e8a74ff-32"}, {"reasons": {"count": 0, "items": [{"summary": "This spot is popular", "type": "general", "reasonName": "globalInteractionReason"}]}, "venue": {"id": "4d3040dff986a09339a1fa66", "name": "Rush Salon", "location": {"address": "433 North End Rd.", "lat": 51.481929400546335, "lng": -0.19971753880936916, "labeledLatLngs": [{"label": "display", "lat": 51.481929400546335, "lng": -0.19971753880936916}], "distance": 450, "postalCode": "SW6 1NY", "cc": "GB", "city": "Fulham", "state": "Greater London", "country": "United Kingdom", "formattedAddress": ["433 North End Rd.", "Fulham", "Greater London", "SW6 1NY", "United Kingdom"]}, "categories": [{"id": "4bf58dd8d48988d10c951735", "name": "Cosmetics Shop", "pluralName": "Cosmetics Shops", "shortName": "Cosmetics", "icon": {"prefix": "https://ss3.4sqi.net/img/categories_v2/shops/beauty_cosmetic_", "suffix": ".png"}, "primary": true}], "photos": {"count": 0, "groups": []}}, "referralId": "e-0-4d3040dff986a09339a1fa66-33"}, {"reasons": {"count": 0, "items": [{"summary": "This spot is popular", "type": "general", "reasonName": "globalInteractionReason"}]}, "venue": {"id": "4bfeb4c605672d7f7c900a04", "name": "The Cafe Fish Restaurant", "location": {"address": "340 North End Road", "lat": 51.481785, "lng": -0.199593, "labeledLatLngs": [{"label": "display", "lat": 51.481785, "lng": -0.199593}], "distance": 468, "cc": "GB", "country": "United Kingdom", "formattedAddress": ["340 North End Road", "United Kingdom"]}, "categories": [{"id": "4bf58dd8d48988d16e941735", "name": "Fast Food Restaurant", "pluralName": "Fast Food Restaurants", "shortName": "Fast Food", "icon": {"prefix": "https://ss3.4sqi.net/img/categories_v2/food/fastfood_", "suffix": ".png"}, "primary": true}], "photos": {"count": 0, "groups": []}}, "referralId": "e-0-4bfeb4c605672d7f7c900a04-34"}]}]}}